{
"type": "FeatureCollection",
"crs": { "type": "name", "properties": { "name": "urn:ogc:def:crs:OGC:1.3:CRS84" } },
"features": [
{ "type": "Feature", "properties": { "code": "1a", "City": "Rome", "Country": "Italy", "Lat": 41.834425497033401, "Lon": 12.4732163036998, "rights holder": "magnusmaximus", "Link": "https:\/\/www.flickr.com\/photos\/magnusmaximus\/14693935556\/in\/photolist-o8ZuUu-oosg7u-o91kLB-oqcPZ6-oos5j7-oqtTKp-o8Z9r7-oos8oo-ebwyNB-oqgSx7-rw7MZ5-Zyuoq8-81oC78-9LkpDY-ebmTgC-68p7NC-ebgdZv-9Lhvti-pot2PJ-Fj4fNs-dGSEdZ-o8Zi3W-oqcHkV-oqsqgf-oqszaN-oosacU-qCMs3Q-oqcLWx-oseQqx-o8Zjg6-o8Zr7v-oqgNW9-nS8Mod-oqu3DX-oqcCq4-hhimPJ-oqcFZD-e8bcPF-pzKmEP-FcXokp-dGY2JL-oVrBbv-qoDzUc-pQ9gsw-oVryxK-ebmSDm-hhi9Lp-hhhYbX-pouCmk-pAwVTb\/" }, "geometry": { "type": "Point", "coordinates": [ 12.4732163036998, 41.834425497033401 ] } },
{ "type": "Feature", "properties": { "code": "2a", "City": "London", "Country": "England", "Lat": 51.510879, "Lon": -0.112266, "rights holder": "City.and.Color", "Link": "https:\/\/www.flickr.com\/photos\/52611380@N05\/14129088256" }, "geometry": { "type": "Point", "coordinates": [ -0.112266, 51.510879 ] } },
{ "type": "Feature", "properties": { "code": "3a", "City": "Barcelona", "Country": "Spain", "Lat": 41.379896, "Lon": 2.191075, "rights holder": "John Weiss", "Link": "https:\/\/www.flickr.com\/photos\/jweiss3\/39369944804\/" }, "geometry": { "type": "Point", "coordinates": [ 2.191075, 41.379896 ] } },
{ "type": "Feature", "properties": { "code": "4a", "City": "New York", "Country": "United States", "Lat": 40.719263689339101, "Lon": -74.002048046736505, "rights holder": "hiimlynx", "Link": "https:\/\/www.flickr.com\/photos\/elizaroff\/26887500010\/in\/photolist-GXXt1o-86bUaE-8V6Ggy-4q9mPa-g2Pv6k-5BcKvt-VRabWV-75S1nx-PX73V1-75S1FR-rfGNeb-nPV4Wz-8U7pwX-nN5EJL-sbPEji-2kBHrLY-5oAsJ1-bnVBXU-aiGvCh-awTHQg-EGDP4V-nN8PU4-5vixK9-9TA3iZ-kbwBwK-z3kj4-62VASY-MRsAZ-5N3XcV-5owePX-5Vmirh-amZy8Q-dij3M6-fSeFuW-62ycBk-66zZuE-bKnbc2-53wCGx-azqQdm-66vNUD-2kXZTEd-2gZTj3r-aq65Fn-2jYKgeV-8BbwTF-5viEL5-5vizeo-4Gn9cz-dywHaP-62Rkyg" }, "geometry": { "type": "Point", "coordinates": [ -74.002048046736505, 40.719263689339101 ] } },
{ "type": "Feature", "properties": { "code": "5a", "City": "Kaysersberg", "Country": "France", "Lat": 48.138511, "Lon": 7.265894, "rights holder": "Joan", "Link": "https:\/\/www.flickr.com\/photos\/joanbrebo\/26110593458\/" }, "geometry": { "type": "Point", "coordinates": [ 7.265894, 48.138511 ] } },
{ "type": "Feature", "properties": { "code": "6a", "City": "Pedraza", "Country": "Spain", "Lat": 41.131863, "Lon": -3.81318, "rights holder": "santiago lopez-pastor", "Link": "https:\/\/www.flickr.com\/photos\/100759833@N05\/21641284591\/" }, "geometry": { "type": "Point", "coordinates": [ -3.81318, 41.131863 ] } },
{ "type": "Feature", "properties": { "code": "7a", "City": "Marrakesh", "Country": "Morocco", "Lat": 31.627688, "Lon": -7.982431, "rights holder": "Pieter Edelman", "Link": "https:\/\/www.flickr.com\/photos\/mr-pi\/23618908990\/in\/photolist-BZ85LN-7zdwyH-KTmfSb-7zdixp-2cty3PS-dpdz1K-7zh2Kf-c6pTNh-7zh42Q-26kaqrJ-vxKFEY-7zdvRi-7zh55J-FnqdU9-7zrRzx-vxKCGd-22ijE3P-dpda8v-7zdhja-9uV4t6-PaKCTa-7zdfE2-7zdvaD-7zduvT-dzwRS7-qLRni8-p14MUV-25AETEu-25Srnm1-E1HXJB-DxR9kx-CkZGQL-2fM2Wdn-7zdfUX-23A9hwi-2aQZxcb-dzryWa-7zerk6-7zh4JU-27mM7bC-7zrSNk-9psmbj-6eb7Nb-22HTf1r-G5Rbhj-dpdtrm-24xyW9L-7zdg9i-7zh2X9-7zdvxg" }, "geometry": { "type": "Point", "coordinates": [ -7.982431, 31.627688 ] } },
{ "type": "Feature", "properties": { "code": "8a", "City": "St Johns", "Country": "Antigua", "Lat": 17.121925, "Lon": -61.842464, "rights holder": "- Adam Reeder -", "Link": "https:\/\/www.flickr.com\/photos\/adamreeder\/31809002663\/" }, "geometry": { "type": "Point", "coordinates": [ -61.842464, 17.121925 ] } },
{ "type": "Feature", "properties": { "code": "9a", "City": "Pingyao", "Country": "China", "Lat": 37.202234723670401, "Lon": 112.179428813052, "rights holder": "Steve Cadman", "Link": "https:\/\/www.flickr.com\/photos\/stevecadman\/117987194\/" }, "geometry": { "type": "Point", "coordinates": [ 112.179428813051999, 37.202234723670401 ] } },
{ "type": "Feature", "properties": { "code": "10a", "City": "Kowloon", "Country": "Hong-Kong", "Lat": 22.296482, "Lon": 114.172775, "rights holder": "Andrea Schaffer", "Link": "https:\/\/www.flickr.com\/photos\/aschaf\/5678777097\/" }, "geometry": { "type": "Point", "coordinates": [ 114.172775, 22.296482 ] } },
{ "type": "Feature", "properties": { "code": "11a", "City": "Truro", "Country": "England", "Lat": 50.264028, "Lon": -5.052436, "rights holder": "barnyz", "Link": "https:\/\/www.flickr.com\/photos\/75487768@N04\/21864237850\/" }, "geometry": { "type": "Point", "coordinates": [ -5.052436, 50.264028 ] } },
{ "type": "Feature", "properties": { "code": "12a", "City": "Trento", "Country": "Italy", "Lat": 46.068228, "Lon": 11.12046, "rights holder": "barnyz", "Link": "https:\/\/www.flickr.com\/photos\/75487768@N04\/30277690023\/" }, "geometry": { "type": "Point", "coordinates": [ 11.12046, 46.068228 ] } },
{ "type": "Feature", "properties": { "code": "13a", "City": "Durham", "Country": "England", "Lat": 54.776209, "Lon": -1.581657, "rights holder": "barnyz", "Link": "https:\/\/www.flickr.com\/photos\/75487768@N04\/23440183809\/" }, "geometry": { "type": "Point", "coordinates": [ -1.581657, 54.776209 ] } },
{ "type": "Feature", "properties": { "code": "14a", "City": "Augsburg", "Country": "Germany", "Lat": 48.36486, "Lon": 10.899564, "rights holder": "barnyz", "Link": "https:\/\/www.flickr.com\/photos\/75487768@N04\/11749539833\/" }, "geometry": { "type": "Point", "coordinates": [ 10.899564, 48.36486 ] } },
{ "type": "Feature", "properties": { "code": "15a", "City": "Mittenwald", "Country": "Austria", "Lat": 47.441324, "Lon": 11.259709, "rights holder": "barnyz", "Link": "https:\/\/www.flickr.com\/photos\/75487768@N04\/6804748975\/" }, "geometry": { "type": "Point", "coordinates": [ 11.259709, 47.441324 ] } },
{ "type": "Feature", "properties": { "code": "16a", "City": "San Juan", "Country": "Puerto Rico", "Lat": 18.4645, "Lon": -66.117834, "rights holder": "Kris Arnold", "Link": "https:\/\/www.flickr.com\/photos\/wka\/6974767229\/in\/photolist-bCkvip-RY1vf2-4jmdC-GzwryQ-ABmhxB-7s6ACa-ehEBiq-5vRYwD-hvz8WM-HDX6yT-q5SNBW-zsAtde-djz16q-f38r9R-22NnLfY-2dr47Kc-fV4Zbw-23E95am-4L7sds-qex9UT-FQorjz-byw8DS-25fZqwg-HZzXNc-pgELWa-26ZfkPf-iHNj-qeE3Zd-kVTp2-fqtwAP-8oC6Fe-7V4cv8-9GaQQQ-bAe2nk-vhag21-cGygx-pPF8Ej-fziTJ9-212NCWh-27aBPiH-j4opt-Rr7qi7-DM5tpK-bAXNSH-dN3Eci-26SyV5a-cUbopN-GtbQhU-Eyv6Wh-ntoQCA" }, "geometry": { "type": "Point", "coordinates": [ -66.117834, 18.4645 ] } },
{ "type": "Feature", "properties": { "code": "17a", "City": "Toxteth", "Country": "England", "Lat": 53.388332, "Lon": -2.95809, "rights holder": "diamond geezer", "Link": "https:\/\/www.flickr.com\/photos\/dgeezer\/20625227259\/" }, "geometry": { "type": "Point", "coordinates": [ -2.95809, 53.388332 ] } },
{ "type": "Feature", "properties": { "code": "18a", "City": "Idstein", "Country": "Germany", "Lat": 50.221085, "Lon": 8.272222, "rights holder": "barnyz", "Link": "https:\/\/www.flickr.com\/photos\/75487768@N04\/15293168261\/" }, "geometry": { "type": "Point", "coordinates": [ 8.272222, 50.221085 ] } },
{ "type": "Feature", "properties": { "code": "19a", "City": "Mantova", "Country": "Italy", "Lat": 45.158002, "Lon": 10.794421, "rights holder": "barnyz", "Link": "https:\/\/www.flickr.com\/photos\/75487768@N04\/6878442603\/" }, "geometry": { "type": "Point", "coordinates": [ 10.794421, 45.158002 ] } },
{ "type": "Feature", "properties": { "code": "20a", "City": "Gloucester", "Country": "England", "Lat": 51.866581, "Lon": -2.248002, "rights holder": "barnyz", "Link": "https:\/\/www.flickr.com\/photos\/75487768@N04\/16197025097\/" }, "geometry": { "type": "Point", "coordinates": [ -2.248002, 51.866581 ] } },
{ "type": "Feature", "properties": { "code": "21a", "City": "Goslar", "Country": "Germany", "Lat": 51.905002, "Lon": 10.429673, "rights holder": "barnyz", "Link": "https:\/\/www.flickr.com\/photos\/75487768@N04\/15988079587\/" }, "geometry": { "type": "Point", "coordinates": [ 10.429673, 51.905002 ] } },
{ "type": "Feature", "properties": { "code": "22a", "City": "Lincoln", "Country": "England", "Lat": 53.23386, "Lon": -0.538845, "rights holder": "barnyz", "Link": "https:\/\/www.flickr.com\/photos\/75487768@N04\/26849276235\/" }, "geometry": { "type": "Point", "coordinates": [ -0.538845, 53.23386 ] } },
{ "type": "Feature", "properties": { "code": "23a", "City": "Vienna", "Country": "Austria", "Lat": 48.210022, "Lon": 16.365646, "rights holder": "barnyz", "Link": "https:\/\/www.flickr.com\/photos\/75487768@N04\/28048407321\/" }, "geometry": { "type": "Point", "coordinates": [ 16.365646, 48.210022 ] } },
{ "type": "Feature", "properties": { "code": "24a", "City": "Bacolod City", "Country": "Philippines", "Lat": 10.663707, "Lon": 122.954134, "rights holder": "Brian Evans", "Link": "https:\/\/www.flickr.com\/photos\/beegee49\/25309363272\/" }, "geometry": { "type": "Point", "coordinates": [ 122.954134, 10.663707 ] } },
{ "type": "Feature", "properties": { "code": "25a", "City": "Manchester", "Country": "England", "Lat": 53.482842, "Lon": -2.231748, "rights holder": "Smabs Sputzer (1956-2017)", "Link": "https:\/\/www.flickr.com\/photos\/10413717@N08\/5927650273\/" }, "geometry": { "type": "Point", "coordinates": [ -2.231748, 53.482842 ] } },
{ "type": "Feature", "properties": { "code": "26a", "City": "Barcelona", "Country": "Spain", "Lat": 41.402674, "Lon": 2.172911, "rights holder": "Sander Wapstra", "Link": "https:\/\/www.flickr.com\/photos\/sanderwapstra\/5215064012\/" }, "geometry": { "type": "Point", "coordinates": [ 2.172911, 41.402674 ] } },
{ "type": "Feature", "properties": { "code": "27a", "City": "La Paz", "Country": "Bolivia", "Lat": -16.496171, "Lon": -68.150081, "rights holder": "psyberartist", "Link": "https:\/\/www.flickr.com\/photos\/psyberartist\/5460883510\/" }, "geometry": { "type": "Point", "coordinates": [ -68.150081, -16.496171 ] } },
{ "type": "Feature", "properties": { "code": "28a", "City": "St Petersburg", "Country": "Russia", "Lat": 59.929108, "Lon": 30.335032, "rights holder": "Polyrus", "Link": "https:\/\/www.flickr.com\/photos\/fotorus\/8035168225\/in\/photolist-foPYWQ-5AwVZi-df3kzc" }, "geometry": { "type": "Point", "coordinates": [ 30.335032, 59.929108 ] } },
{ "type": "Feature", "properties": { "code": "29a", "City": "Zermatt", "Country": "Switzerland", "Lat": 46.021358, "Lon": 7.746905, "rights holder": "Tony Fernandez", "Link": "https:\/\/www.flickr.com\/photos\/133753799@N04\/36497275784\/" }, "geometry": { "type": "Point", "coordinates": [ 7.746905, 46.021358 ] } },
{ "type": "Feature", "properties": { "code": "30a", "City": "Venlo", "Country": "The Netherlands", "Lat": 51.368826, "Lon": 6.168265, "rights holder": "Ruben Holthuijsen", "Link": "https:\/\/www.flickr.com\/photos\/rubenholthuijsen\/23975317436\/" }, "geometry": { "type": "Point", "coordinates": [ 6.168265, 51.368826 ] } },
{ "type": "Feature", "properties": { "code": "31a", "City": "Copenhagen", "Country": "Denmark", "Lat": 55.680449, "Lon": 12.574558, "rights holder": "barnyz", "Link": "https:\/\/www.flickr.com\/photos\/75487768@N04\/22822316486\/" }, "geometry": { "type": "Point", "coordinates": [ 12.574558, 55.680449 ] } },
{ "type": "Feature", "properties": { "code": "32a", "City": "Lund", "Country": "Sweden", "Lat": 55.704087, "Lon": 13.19064, "rights holder": "barnyz", "Link": "https:\/\/www.flickr.com\/photos\/75487768@N04\/22818034023\/" }, "geometry": { "type": "Point", "coordinates": [ 13.19064, 55.704087 ] } },
{ "type": "Feature", "properties": { "code": "33a", "City": "Brixen", "Country": "Italy", "Lat": 46.715937, "Lon": 11.656869, "rights holder": "barnyz", "Link": "https:\/\/www.flickr.com\/photos\/75487768@N04\/6833339197\/" }, "geometry": { "type": "Point", "coordinates": [ 11.656869, 46.715937 ] } },
{ "type": "Feature", "properties": { "code": "34a", "City": "York", "Country": "England", "Lat": 53.962663, "Lon": -1.080983, "rights holder": "barnyz", "Link": "https:\/\/www.flickr.com\/photos\/75487768@N04\/28477492402\/" }, "geometry": { "type": "Point", "coordinates": [ -1.080983, 53.962663 ] } },
{ "type": "Feature", "properties": { "code": "35a", "City": "Wells", "Country": "England", "Lat": 51.211023, "Lon": -2.643413, "rights holder": "shirokazan", "Link": "https:\/\/www.flickr.com\/photos\/shirokazan\/4787267830\/" }, "geometry": { "type": "Point", "coordinates": [ -2.643413, 51.211023 ] } },
{ "type": "Feature", "properties": { "code": "36a", "City": "Wiesbaden", "Country": "Germany", "Lat": 49.999181, "Lon": 8.273724, "rights holder": "barnyz", "Link": "https:\/\/www.flickr.com\/photos\/75487768@N04\/15795560566\/" }, "geometry": { "type": "Point", "coordinates": [ 8.273724, 49.999181 ] } },
{ "type": "Feature", "properties": { "code": "37a", "City": "Annecy", "Country": "France", "Lat": 45.89892, "Lon": 6.12392, "rights holder": "barnyz", "Link": "https:\/\/www.flickr.com\/photos\/75487768@N04\/27489887220\/" }, "geometry": { "type": "Point", "coordinates": [ 6.12392, 45.89892 ] } },
{ "type": "Feature", "properties": { "code": "38a", "City": "Venice", "Country": "Italy", "Lat": 45.436165, "Lon": 12.333741, "rights holder": "barnyz", "Link": "https:\/\/www.flickr.com\/photos\/75487768@N04\/6793692062\/" }, "geometry": { "type": "Point", "coordinates": [ 12.333741, 45.436165 ] } }
]
}
